{"total":4,"results":[{"id":4027210,"shortcode":"35E1F9A824","title":"Software Engineer - ML applications and infrastructure","remote":false,"location":{"country":"United Kingdom","countryCode":"GB","city":"Bristol","region":"England"},"locations":[{"country":"United Kingdom","countryCode":"GB","city":"Bristol","region":"England","hidden":false}],"state":"published","isInternal":false,"code":"","published":"2024-05-14T00:00:00.000Z","type":"full","language":"en","department":["Moment"],"accountUid":"cdfa2a3f-9f2d-4aa2-9b46-5eca9ac3cc3e","approvalStatus":"approved","workplace":"hybrid"},{"id":3968294,"shortcode":"70DCEAB959","title":"Community Management Interns - global home cooking communities","remote":false,"location":{"country":"United Kingdom","countryCode":"GB","city":"Bristol","region":"England"},"locations":[{"country":"United Kingdom","countryCode":"GB","city":"Bristol","region":"England","hidden":false}],"state":"published","isInternal":false,"code":"","published":"2024-04-30T00:00:00.000Z","type":"temporary","language":"en","department":["Community"],"accountUid":"cdfa2a3f-9f2d-4aa2-9b46-5eca9ac3cc3e","approvalStatus":"approved","workplace":"hybrid"},{"id":3945939,"shortcode":"A0D38B968E","title":"Assistant Project Manager - bilingual Japanese/English","remote":false,"location":{"country":"United Kingdom","countryCode":"GB","city":"Bristol","region":"England"},"locations":[{"country":"United Kingdom","countryCode":"GB","city":"Bristol","region":"England","hidden":false}],"state":"published","isInternal":false,"code":"","published":"2024-04-23T00:00:00.000Z","type":"full","language":"en","department":["Moment"],"accountUid":"cdfa2a3f-9f2d-4aa2-9b46-5eca9ac3cc3e","approvalStatus":"approved","workplace":"on_site"},{"id":3840665,"shortcode":"396F887BFB","title":"UK-based Operations Coordinator for Japan market","remote":false,"location":{"country":"United Kingdom","countryCode":"GB","city":"Bristol","region":"England"},"locations":[{"country":"United Kingdom","countryCode":"GB","city":"Bristol","region":"England","hidden":false}],"state":"published","isInternal":false,"code":"","published":"2024-03-07T00:00:00.000Z","type":"full","language":"en","department":["Moment"],"accountUid":"cdfa2a3f-9f2d-4aa2-9b46-5eca9ac3cc3e","approvalStatus":"approved","workplace":"hybrid"}]}